{
   "features" : [
      {
         "geometry" : {
            "coordinates" : [
               13.6,
               55.3944444444444
            ],
            "type" : "Point"
         },
         "properties" : {
            "land_area" : 906000,
            "locality_name" : "Abbekås",
            "municipality_code" : "3300",
            "municipality_name" : "Skurups kommun",
            "population" : "729"
         },
         "type" : "Feature"
      },
      {
         "geometry" : {
            "coordinates" : [
               17.0444444444444,
               59.3833333333333
            ],
            "type" : "Point"
         },
         "properties" : {
            "land_area" : 1375600,
            "locality_name" : "Abborrberget",
            "municipality_code" : "0699",
            "municipality_name" : "Strängnäs kommun",
            "population" : "2141"
         },
         "type" : "Feature"
      },
      {
         "geometry" : {
            "coordinates" : [
               14.1447222222222,
               56.7475
            ],
            "type" : "Point"
         },
         "properties" : {
            "land_area" : 404300,
            "locality_name" : "Agunnaryd",
            "municipality_code" : "1802",
            "municipality_name" : "Ljungby kommun",
            "population" : "220"
         },
         "type" : "Feature"
      },
      {
         "geometry" : {
            "coordinates" : [
               16.1166666666667,
               59.2805555555556
            ],
            "type" : "Point"
         },
         "properties" : {
            "land_area" : 419300,
            "locality_name" : "Alberga",
            "municipality_code" : "0700",
            "municipality_name" : "Eskilstuna kommun",
            "population" : "395"
         },
         "type" : "Feature"
      },
      {
         "geometry" : {
            "coordinates" : [
               15.4780555555556,
               62.4938888888889
            ],
            "type" : "Point"
         },
         "properties" : {
            "land_area" : 1236000,
            "locality_name" : "Alby",
            "municipality_code" : "7400",
            "municipality_name" : "Ånge kommun",
            "population" : "367"
         },
         "type" : "Feature"
      },
      {
         "geometry" : {
            "coordinates" : [
               16.0833333333333,
               61.35
            ],
            "type" : "Point"
         },
         "properties" : {
            "land_area" : 3434800,
            "locality_name" : "Alfta",
            "municipality_code" : "7000",
            "municipality_name" : "Ovanåkers kommun",
            "population" : "2155"
         },
         "type" : "Feature"
      },
      {
         "geometry" : {
            "coordinates" : [
               16.5302777777778,
               56.6808333333333
            ],
            "type" : "Point"
         },
         "properties" : {
            "land_area" : 572700,
            "locality_name" : "Algutsrum",
            "municipality_code" : "2092",
            "municipality_name" : "Mörbylånga kommun",
            "population" : "532"
         },
         "type" : "Feature"
      },
      {
         "geometry" : {
            "coordinates" : [
               12.5333333333333,
               57.9333333333333
            ],
            "type" : "Point"
         },
         "properties" : {
            "land_area" : 12352300,
            "locality_name" : "Alingsås",
            "municipality_code" : "4700",
            "municipality_name" : "Alingsås kommun",
            "population" : "24482"
         },
         "type" : "Feature"
      },
      {
         "geometry" : {
            "coordinates" : [
               12.6919444444444,
               56.11
            ],
            "type" : "Point"
         },
         "properties" : {
            "land_area" : 779400,
            "locality_name" : "Allerum",
            "municipality_code" : "3304",
            "municipality_name" : "Helsingborgs kommun",
            "population" : "716"
         },
         "type" : "Feature"
      },
      {
         "geometry" : {
            "coordinates" : [
               18.0466666666667,
               59.8752777777778
            ],
            "type" : "Point"
         },
         "properties" : {
            "land_area" : 845400,
            "locality_name" : "Almunge",
            "municipality_code" : "0500",
            "municipality_name" : "Uppsala kommun",
            "population" : "813"
         },
         "type" : "Feature"
      },
      {
         "geometry" : {
            "coordinates" : [
               17.7633333333333,
               59.7577777777778
            ],
            "type" : "Point"
         },
         "properties" : {
            "land_area" : 2382600,
            "locality_name" : "Alsike",
            "municipality_code" : "0504",
            "municipality_name" : "Knivsta kommun",
            "population" : "2681"
         },
         "type" : "Feature"
      },
      {
         "geometry" : {
            "coordinates" : [
               13.2047222222222,
               55.4536111111111
            ],
            "type" : "Point"
         },
         "properties" : {
            "land_area" : 231500,
            "locality_name" : "Alstad",
            "municipality_code" : "3308",
            "municipality_name" : "Trelleborgs kommun",
            "population" : "237"
         },
         "type" : "Feature"
      },
      {
         "geometry" : {
            "coordinates" : [
               13.6136111111111,
               59.3977777777778
            ],
            "type" : "Point"
         },
         "properties" : {
            "land_area" : 838800,
            "locality_name" : "Alster",
            "municipality_code" : "5596",
            "municipality_name" : "Karlstads kommun",
            "population" : "586"
         },
         "type" : "Feature"
      },
      {
         "geometry" : {
            "coordinates" : [
               15.9138888888889,
               56.9430555555556
            ],
            "type" : "Point"
         },
         "properties" : {
            "land_area" : 879500,
            "locality_name" : "Alsterbro",
            "municipality_code" : "2100",
            "municipality_name" : "Nybro kommun",
            "population" : "422"
         },
         "type" : "Feature"
      },
      {
         "geometry" : {
            "coordinates" : [
               15.6530555555556,
               56.9747222222222
            ],
            "type" : "Point"
         },
         "properties" : {
            "land_area" : 1560800,
            "locality_name" : "Alstermo",
            "municipality_code" : "1804",
            "municipality_name" : "Uppvidinge kommun",
            "population" : "829"
         },
         "type" : "Feature"
      },
      {
         "geometry" : {
            "coordinates" : [
               18.0833333333333,
               60.0666666666667
            ],
            "type" : "Point"
         },
         "properties" : {
            "land_area" : 2283400,
            "locality_name" : "Alunda",
            "municipality_code" : "0508",
            "municipality_name" : "Östhammars kommun",
            "population" : "2317"
         },
         "type" : "Feature"
      },
      {
         "geometry" : {
            "coordinates" : [
               14.56,
               56.9019444444444
            ],
            "type" : "Point"
         },
         "properties" : {
            "land_area" : 6103200,
            "locality_name" : "Alvesta",
            "municipality_code" : "1808",
            "municipality_name" : "Alvesta kommun",
            "population" : "8017"
         },
         "type" : "Feature"
      },
      {
         "geometry" : {
            "coordinates" : [
               12.1555555555556,
               58.0072222222222
            ],
            "type" : "Point"
         },
         "properties" : {
            "land_area" : 205400,
            "locality_name" : "Alvhem",
            "municipality_code" : "4704",
            "municipality_name" : "Ale kommun",
            "population" : "202"
         },
         "type" : "Feature"
      },
      {
         "geometry" : {
            "coordinates" : [
               14.8727777777778,
               60.7452777777778
            ],
            "type" : "Point"
         },
         "properties" : {
            "land_area" : 880200,
            "locality_name" : "Alvik",
            "municipality_code" : "6402",
            "municipality_name" : "Leksands kommun",
            "population" : "227"
         },
         "type" : "Feature"
      },
      {
         "geometry" : {
            "coordinates" : [
               21.7811111111111,
               65.5630555555556
            ],
            "type" : "Point"
         },
         "properties" : {
            "land_area" : 1665600,
            "locality_name" : "Alvik",
            "municipality_code" : "8504",
            "municipality_name" : "Luleå kommun",
            "population" : "777"
         },
         "type" : "Feature"
      },
      {
         "geometry" : {
            "coordinates" : [
               13.18,
               60.5
            ],
            "type" : "Point"
         },
         "properties" : {
            "land_area" : 1481100,
            "locality_name" : "Ambjörby",
            "municipality_code" : "5600",
            "municipality_name" : "Torsby kommun",
            "population" : "227"
         },
         "type" : "Feature"
      },
      {
         "geometry" : {
            "coordinates" : [
               13.2916666666667,
               57.4222222222222
            ],
            "type" : "Point"
         },
         "properties" : {
            "land_area" : 856300,
            "locality_name" : "Ambjörnarp",
            "municipality_code" : "4708",
            "municipality_name" : "Tranemo kommun",
            "population" : "270"
         },
         "type" : "Feature"
      },
      {
         "geometry" : {
            "coordinates" : [
               11.825,
               58.3138888888889
            ],
            "type" : "Point"
         },
         "properties" : {
            "land_area" : 1501100,
            "locality_name" : "Ammenäs",
            "municipality_code" : "4296",
            "municipality_name" : "Uddevalla kommun",
            "population" : "544"
         },
         "type" : "Feature"
      },
      {
         "geometry" : {
            "coordinates" : [
               11.75,
               57.7
            ],
            "type" : "Point"
         },
         "properties" : {
            "land_area" : 1583100,
            "locality_name" : "Andalen",
            "municipality_code" : "4550",
            "municipality_name" : "Göteborgs kommun",
            "population" : "2188"
         },
         "type" : "Feature"
      },
      {
         "geometry" : {
            "coordinates" : [
               13.3166666666667,
               55.4388888888889
            ],
            "type" : "Point"
         },
         "properties" : {
            "land_area" : 1026900,
            "locality_name" : "Anderslöv",
            "municipality_code" : "3312",
            "municipality_name" : "Trelleborgs kommun",
            "population" : "1808"
         },
         "type" : "Feature"
      },
      {
         "geometry" : {
            "coordinates" : [
               13.6333333333333,
               57.2833333333333
            ],
            "type" : "Point"
         },
         "properties" : {
            "land_area" : 5613400,
            "locality_name" : "Anderstorp",
            "municipality_code" : "1400",
            "municipality_name" : "Gislaveds kommun",
            "population" : "4965"
         },
         "type" : "Feature"
      },
      {
         "geometry" : {
            "coordinates" : [
               14.8161111111111,
               57.8388888888889
            ],
            "type" : "Point"
         },
         "properties" : {
            "land_area" : 3367500,
            "locality_name" : "Aneby",
            "municipality_code" : "1404",
            "municipality_name" : "Aneby kommun",
            "population" : "3367"
         },
         "type" : "Feature"
      },
      {
         "geometry" : {
            "coordinates" : [
               13.7655555555556,
               56.8263888888889
            ],
            "type" : "Point"
         },
         "properties" : {
            "land_area" : 481800,
            "locality_name" : "Angelstad",
            "municipality_code" : "1812",
            "municipality_name" : "Ljungby kommun",
            "population" : "271"
         },
         "type" : "Feature"
      },
      {
         "geometry" : {
            "coordinates" : [
               12.1,
               57.7833333333333
            ],
            "type" : "Point"
         },
         "properties" : {
            "land_area" : 1595400,
            "locality_name" : "Angered",
            "municipality_code" : "4294",
            "municipality_name" : "Göteborgs kommun",
            "population" : "950"
         },
         "type" : "Feature"
      },
      {
         "geometry" : {
            "coordinates" : [
               16.3319444444444,
               57.7002777777778
            ],
            "type" : "Point"
         },
         "properties" : {
            "land_area" : 1659700,
            "locality_name" : "Ankarsrum",
            "municipality_code" : "2104",
            "municipality_name" : "Västerviks kommun",
            "population" : "1254"
         },
         "type" : "Feature"
      },
      {
         "geometry" : {
            "coordinates" : [
               17.41,
               62.3730555555556
            ],
            "type" : "Point"
         },
         "properties" : {
            "land_area" : 1693200,
            "locality_name" : "Ankarsvik",
            "municipality_code" : "7408",
            "municipality_name" : "Sundsvalls kommun",
            "population" : "944"
         },
         "type" : "Feature"
      },
      {
         "geometry" : {
            "coordinates" : [
               14.8041666666667,
               57.7241666666667
            ],
            "type" : "Point"
         },
         "properties" : {
            "land_area" : 978400,
            "locality_name" : "Anneberg",
            "municipality_code" : "1408",
            "municipality_name" : "Nässjö kommun",
            "population" : "833"
         },
         "type" : "Feature"
      },
      {
         "geometry" : {
            "coordinates" : [
               12.1011111111111,
               57.5391666666667
            ],
            "type" : "Point"
         },
         "properties" : {
            "land_area" : 1126300,
            "locality_name" : "Anneberg",
            "municipality_code" : "3900",
            "municipality_name" : "Kungsbacka kommun",
            "population" : "1469"
         },
         "type" : "Feature"
      },
      {
         "geometry" : {
            "coordinates" : [
               13.0916666666667,
               57.9916666666667
            ],
            "type" : "Point"
         },
         "properties" : {
            "land_area" : 767700,
            "locality_name" : "Annelund",
            "municipality_code" : "4712",
            "municipality_name" : "Herrljunga kommun",
            "population" : "519"
         },
         "type" : "Feature"
      },
      {
         "geometry" : {
            "coordinates" : [
               13.0197222222222,
               55.8366666666667
            ],
            "type" : "Point"
         },
         "properties" : {
            "land_area" : 327900,
            "locality_name" : "Annelöv",
            "municipality_code" : "3316",
            "municipality_name" : "Landskrona kommun",
            "population" : "380"
         },
         "type" : "Feature"
      },
      {
         "geometry" : {
            "coordinates" : [
               21.8361111111111,
               65.5541666666667
            ],
            "type" : "Point"
         },
         "properties" : {
            "land_area" : 897600,
            "locality_name" : "Antnäs",
            "municipality_code" : "8508",
            "municipality_name" : "Luleå kommun",
            "population" : "822"
         },
         "type" : "Feature"
      },
      {
         "geometry" : {
            "coordinates" : [
               13.0666666666667,
               57.65
            ],
            "type" : "Point"
         },
         "properties" : {
            "land_area" : 554500,
            "locality_name" : "Aplared",
            "municipality_code" : "4716",
            "municipality_name" : "Borås kommun",
            "population" : "465"
         },
         "type" : "Feature"
      },
      {
         "geometry" : {
            "coordinates" : [
               15.8405555555556,
               59.395
            ],
            "type" : "Point"
         },
         "properties" : {
            "land_area" : 9497700,
            "locality_name" : "Arboga",
            "municipality_code" : "6200",
            "municipality_name" : "Arboga kommun",
            "population" : "10330"
         },
         "type" : "Feature"
      },
      {
         "geometry" : {
            "coordinates" : [
               16.3833333333333,
               61.4833333333333
            ],
            "type" : "Point"
         },
         "properties" : {
            "land_area" : 3942200,
            "locality_name" : "Arbrå",
            "municipality_code" : "7004",
            "municipality_name" : "Bollnäs kommun",
            "population" : "2215"
         },
         "type" : "Feature"
      },
      {
         "geometry" : {
            "coordinates" : [
               13.3333333333333,
               58.3583333333333
            ],
            "type" : "Point"
         },
         "properties" : {
            "land_area" : 527600,
            "locality_name" : "Ardala",
            "municipality_code" : "5200",
            "municipality_name" : "Skara kommun",
            "population" : "725"
         },
         "type" : "Feature"
      },
      {
         "geometry" : {
            "coordinates" : [
               12.8738888888889,
               58.2416666666667
            ],
            "type" : "Point"
         },
         "properties" : {
            "land_area" : 575200,
            "locality_name" : "Arentorp",
            "municipality_code" : "5204",
            "municipality_name" : "Vara kommun",
            "population" : "472"
         },
         "type" : "Feature"
      },
      {
         "geometry" : {
            "coordinates" : [
               12.5730555555556,
               56.275
            ],
            "type" : "Point"
         },
         "properties" : {
            "land_area" : 1454700,
            "locality_name" : "Arild",
            "municipality_code" : "3320",
            "municipality_name" : "Höganäs kommun",
            "population" : "522"
         },
         "type" : "Feature"
      },
      {
         "geometry" : {
            "coordinates" : [
               17.95,
               66.0333333333333
            ],
            "type" : "Point"
         },
         "properties" : {
            "land_area" : 2291800,
            "locality_name" : "Arjeplog",
            "municipality_code" : "8512",
            "municipality_name" : "Arjeplogs kommun",
            "population" : "1977"
         },
         "type" : "Feature"
      },
      {
         "geometry" : {
            "coordinates" : [
               14.2852777777778,
               56.1747222222222
            ],
            "type" : "Point"
         },
         "properties" : {
            "land_area" : 1076300,
            "locality_name" : "Arkelstorp",
            "municipality_code" : "2800",
            "municipality_name" : "Kristianstads kommun",
            "population" : "768"
         },
         "type" : "Feature"
      },
      {
         "geometry" : {
            "coordinates" : [
               18.7952777777778,
               63.3186111111111
            ],
            "type" : "Point"
         },
         "properties" : {
            "land_area" : 834300,
            "locality_name" : "Arnäsvall",
            "municipality_code" : "7412",
            "municipality_name" : "Örnsköldsviks kommun",
            "population" : "341"
         },
         "type" : "Feature"
      },
      {
         "geometry" : {
            "coordinates" : [
               17.0186111111111,
               58.7291666666667
            ],
            "type" : "Point"
         },
         "properties" : {
            "land_area" : 2100500,
            "locality_name" : "Arnö",
            "municipality_code" : "0702",
            "municipality_name" : "Nyköpings kommun",
            "population" : "3871"
         },
         "type" : "Feature"
      },
      {
         "geometry" : {
            "coordinates" : [
               16.5313888888889,
               56.6441666666667
            ],
            "type" : "Point"
         },
         "properties" : {
            "land_area" : 370300,
            "locality_name" : "Arontorp",
            "municipality_code" : "2106",
            "municipality_name" : "Mörbylånga kommun",
            "population" : "233"
         },
         "type" : "Feature"
      },
      {
         "geometry" : {
            "coordinates" : [
               19.1666666666667,
               65.5833333333333
            ],
            "type" : "Point"
         },
         "properties" : {
            "land_area" : 4669000,
            "locality_name" : "Arvidsjaur",
            "municipality_code" : "8516",
            "municipality_name" : "Arvidsjaurs kommun",
            "population" : "4635"
         },
         "type" : "Feature"
      },
      {
         "geometry" : {
            "coordinates" : [
               12.5913888888889,
               59.6541666666667
            ],
            "type" : "Point"
         },
         "properties" : {
            "land_area" : 10618100,
            "locality_name" : "Arvika",
            "municipality_code" : "5604",
            "municipality_name" : "Arvika kommun",
            "population" : "14244"
         },
         "type" : "Feature"
      },
      {
         "geometry" : {
            "coordinates" : [
               11.7772222222222,
               57.9711111111111
            ],
            "type" : "Point"
         },
         "properties" : {
            "land_area" : 1477800,
            "locality_name" : "Aröd och Timmervik",
            "municipality_code" : "5070",
            "municipality_name" : "Stenungsunds kommun",
            "population" : "637"
         },
         "type" : "Feature"
      },
      {
         "geometry" : {
            "coordinates" : [
               15.8522222222222,
               58.4083333333333
            ],
            "type" : "Point"
         },
         "properties" : {
            "land_area" : 491700,
            "locality_name" : "Askeby",
            "municipality_code" : "1004",
            "municipality_name" : "Linköpings kommun",
            "population" : "518"
         },
         "type" : "Feature"
      },
      {
         "geometry" : {
            "coordinates" : [
               15.475,
               59.15
            ],
            "type" : "Point"
         },
         "properties" : {
            "land_area" : 529500,
            "locality_name" : "Askersby",
            "municipality_code" : "5900",
            "municipality_name" : "Örebro kommun",
            "population" : "243"
         },
         "type" : "Feature"
      },
      {
         "geometry" : {
            "coordinates" : [
               14.9,
               58.8666666666667
            ],
            "type" : "Point"
         },
         "properties" : {
            "land_area" : 2780200,
            "locality_name" : "Askersund",
            "municipality_code" : "5904",
            "municipality_name" : "Askersunds kommun",
            "population" : "3887"
         },
         "type" : "Feature"
      },
      {
         "geometry" : {
            "coordinates" : [
               12.9475,
               55.8858333333333
            ],
            "type" : "Point"
         },
         "properties" : {
            "land_area" : 1001500,
            "locality_name" : "Asmundtorp",
            "municipality_code" : "3328",
            "municipality_name" : "Landskrona kommun",
            "population" : "1562"
         },
         "type" : "Feature"
      },
      {
         "geometry" : {
            "coordinates" : [
               11.7997222222222,
               57.6483333333333
            ],
            "type" : "Point"
         },
         "properties" : {
            "land_area" : 326900,
            "locality_name" : "Asperö",
            "municipality_code" : "4298",
            "municipality_name" : "Göteborgs kommun",
            "population" : "402"
         },
         "type" : "Feature"
      },
      {
         "geometry" : {
            "coordinates" : [
               14.4833333333333,
               63.3666666666667
            ],
            "type" : "Point"
         },
         "properties" : {
            "land_area" : 620900,
            "locality_name" : "Aspås",
            "municipality_code" : "7800",
            "municipality_name" : "Krokoms kommun",
            "population" : "375"
         },
         "type" : "Feature"
      },
      {
         "geometry" : {
            "coordinates" : [
               21.8036111111111,
               65.6802777777778
            ],
            "type" : "Point"
         },
         "properties" : {
            "land_area" : 645500,
            "locality_name" : "Avan",
            "municipality_code" : "8524",
            "municipality_name" : "Luleå kommun",
            "population" : "200"
         },
         "type" : "Feature"
      },
      {
         "geometry" : {
            "coordinates" : [
               16.1683333333333,
               60.1455555555556
            ],
            "type" : "Point"
         },
         "properties" : {
            "land_area" : 13910200,
            "locality_name" : "Avesta",
            "municipality_code" : "6404",
            "municipality_name" : "Avesta kommun",
            "population" : "14506"
         },
         "type" : "Feature"
      },
      {
         "geometry" : {
            "coordinates" : [
               13.5666666666667,
               58.3833333333333
            ],
            "type" : "Point"
         },
         "properties" : {
            "land_area" : 1103000,
            "locality_name" : "Axvall",
            "municipality_code" : "5208",
            "municipality_name" : "Skara kommun",
            "population" : "1186"
         },
         "type" : "Feature"
      },
      {
         "geometry" : {
            "coordinates" : [
               11.9944444444444,
               57.4694444444444
            ],
            "type" : "Point"
         },
         "properties" : {
            "land_area" : 1410200,
            "locality_name" : "Backa",
            "municipality_code" : "3904",
            "municipality_name" : "Kungsbacka kommun",
            "population" : "1547"
         },
         "type" : "Feature"
      },
      {
         "geometry" : {
            "coordinates" : [
               15.1516666666667,
               56.3461111111111
            ],
            "type" : "Point"
         },
         "properties" : {
            "land_area" : 669400,
            "locality_name" : "Backaryd",
            "municipality_code" : "2600",
            "municipality_name" : "Ronneby kommun",
            "population" : "365"
         },
         "type" : "Feature"
      },
      {
         "geometry" : {
            "coordinates" : [
               16.6166666666667,
               60.6166666666667
            ],
            "type" : "Point"
         },
         "properties" : {
            "land_area" : 857800,
            "locality_name" : "Backberg",
            "municipality_code" : "7012",
            "municipality_name" : "Sandvikens kommun",
            "population" : "244"
         },
         "type" : "Feature"
      },
      {
         "geometry" : {
            "coordinates" : [
               16.41,
               63.8091666666667
            ],
            "type" : "Point"
         },
         "properties" : {
            "land_area" : 1262100,
            "locality_name" : "Backe",
            "municipality_code" : "7804",
            "municipality_name" : "Strömsunds kommun",
            "population" : "599"
         },
         "type" : "Feature"
      },
      {
         "geometry" : {
            "coordinates" : [
               16.0655555555556,
               59.0080555555556
            ],
            "type" : "Point"
         },
         "properties" : {
            "land_area" : 844000,
            "locality_name" : "Baggetorp",
            "municipality_code" : "0704",
            "municipality_name" : "Vingåkers kommun",
            "population" : "502"
         },
         "type" : "Feature"
      },
      {
         "geometry" : {
            "coordinates" : [
               13.8469444444444,
               56.2144444444444
            ],
            "type" : "Point"
         },
         "properties" : {
            "land_area" : 582000,
            "locality_name" : "Ballingslöv",
            "municipality_code" : "2804",
            "municipality_name" : "Hässleholms kommun",
            "population" : "310"
         },
         "type" : "Feature"
      },
      {
         "geometry" : {
            "coordinates" : [
               14.2097222222222,
               56.0744444444444
            ],
            "type" : "Point"
         },
         "properties" : {
            "land_area" : 391100,
            "locality_name" : "Balsby",
            "municipality_code" : "2808",
            "municipality_name" : "Kristianstads kommun",
            "population" : "430"
         },
         "type" : "Feature"
      },
      {
         "geometry" : {
            "coordinates" : [
               18.4644444444444,
               59.5075
            ],
            "type" : "Point"
         },
         "properties" : {
            "land_area" : 791900,
            "locality_name" : "Bammarboda",
            "municipality_code" : "0102",
            "municipality_name" : "Österåkers kommun",
            "population" : "249"
         },
         "type" : "Feature"
      },
      {
         "geometry" : {
            "coordinates" : [
               15.8252777777778,
               58.3747222222222
            ],
            "type" : "Point"
         },
         "properties" : {
            "land_area" : 297700,
            "locality_name" : "Bankekind",
            "municipality_code" : "1008",
            "municipality_name" : "Linköpings kommun",
            "population" : "405"
         },
         "type" : "Feature"
      },
      {
         "geometry" : {
            "coordinates" : [
               14.125,
               57.8583333333333
            ],
            "type" : "Point"
         },
         "properties" : {
            "land_area" : 5394000,
            "locality_name" : "Bankeryd",
            "municipality_code" : "1412",
            "municipality_name" : "Jönköpings kommun",
            "population" : "8107"
         },
         "type" : "Feature"
      },
      {
         "geometry" : {
            "coordinates" : [
               13.1825,
               55.5808333333333
            ],
            "type" : "Point"
         },
         "properties" : {
            "land_area" : 1639300,
            "locality_name" : "Bara",
            "municipality_code" : "3332",
            "municipality_name" : "Svedala kommun",
            "population" : "3444"
         },
         "type" : "Feature"
      },
      {
         "geometry" : {
            "coordinates" : [
               16.5033333333333,
               59.5530555555556
            ],
            "type" : "Point"
         },
         "properties" : {
            "land_area" : 851500,
            "locality_name" : "Barkarö",
            "municipality_code" : "6204",
            "municipality_name" : "Västerås kommun",
            "population" : "1163"
         },
         "type" : "Feature"
      },
      {
         "geometry" : {
            "coordinates" : [
               12.9555555555556,
               55.7708333333333
            ],
            "type" : "Point"
         },
         "properties" : {
            "land_area" : 442100,
            "locality_name" : "Barsebäck",
            "municipality_code" : "3336",
            "municipality_name" : "Kävlinge kommun",
            "population" : "524"
         },
         "type" : "Feature"
      },
      {
         "geometry" : {
            "coordinates" : [
               12.9058333333333,
               55.7558333333333
            ],
            "type" : "Point"
         },
         "properties" : {
            "land_area" : 380400,
            "locality_name" : "Barsebäckshamn",
            "municipality_code" : "3337",
            "municipality_name" : "Kävlinge kommun",
            "population" : "438"
         },
         "type" : "Feature"
      },
      {
         "geometry" : {
            "coordinates" : [
               20.0436111111111,
               64.7894444444444
            ],
            "type" : "Point"
         },
         "properties" : {
            "land_area" : 1093300,
            "locality_name" : "Bastuträsk",
            "municipality_code" : "8112",
            "municipality_name" : "Norsjö kommun",
            "population" : "392"
         },
         "type" : "Feature"
      },
      {
         "geometry" : {
            "coordinates" : [
               13.4291666666667,
               55.3583333333333
            ],
            "type" : "Point"
         },
         "properties" : {
            "land_area" : 1009500,
            "locality_name" : "Beddingestrand",
            "municipality_code" : "3338",
            "municipality_name" : "Trelleborgs kommun",
            "population" : "678"
         },
         "type" : "Feature"
      },
      {
         "geometry" : {
            "coordinates" : [
               12.175,
               57.6388888888889
            ],
            "type" : "Point"
         },
         "properties" : {
            "land_area" : 655200,
            "locality_name" : "Benareby",
            "municipality_code" : "4290",
            "municipality_name" : "Härryda kommun",
            "population" : "384"
         },
         "type" : "Feature"
      },
      {
         "geometry" : {
            "coordinates" : [
               12.2166666666667,
               59.0333333333333
            ],
            "type" : "Point"
         },
         "properties" : {
            "land_area" : 3269000,
            "locality_name" : "Bengtsfors",
            "municipality_code" : "4720",
            "municipality_name" : "Bengtsfors kommun",
            "population" : "3080"
         },
         "type" : "Feature"
      },
      {
         "geometry" : {
            "coordinates" : [
               15.8722222222222,
               60.7005555555556
            ],
            "type" : "Point"
         },
         "properties" : {
            "land_area" : 1504900,
            "locality_name" : "Bengtsheden",
            "municipality_code" : "6412",
            "municipality_name" : "Falu kommun",
            "population" : "530"
         },
         "type" : "Feature"
      },
      {
         "geometry" : {
            "coordinates" : [
               22.2333333333333,
               65.6416666666667
            ],
            "type" : "Point"
         },
         "properties" : {
            "land_area" : 499000,
            "locality_name" : "Bensbyn",
            "municipality_code" : "8528",
            "municipality_name" : "Luleå kommun",
            "population" : "448"
         },
         "type" : "Feature"
      },
      {
         "geometry" : {
            "coordinates" : [
               16.0238888888889,
               58.2177777777778
            ],
            "type" : "Point"
         },
         "properties" : {
            "land_area" : 535600,
            "locality_name" : "Berg",
            "municipality_code" : "1012",
            "municipality_name" : "Åtvidabergs kommun",
            "population" : "311"
         },
         "type" : "Feature"
      },
      {
         "geometry" : {
            "coordinates" : [
               15.5305555555556,
               58.4897222222222
            ],
            "type" : "Point"
         },
         "properties" : {
            "land_area" : 1093600,
            "locality_name" : "Berg",
            "municipality_code" : "1016",
            "municipality_name" : "Linköpings kommun",
            "population" : "1278"
         },
         "type" : "Feature"
      },
      {
         "geometry" : {
            "coordinates" : [
               17.0166666666667,
               60.4027777777778
            ],
            "type" : "Point"
         },
         "properties" : {
            "land_area" : 504500,
            "locality_name" : "Berg",
            "municipality_code" : "7014",
            "municipality_name" : "Gävle kommun",
            "population" : "213"
         },
         "type" : "Feature"
      },
      {
         "geometry" : {
            "coordinates" : [
               16.0327777777778,
               57.2166666666667
            ],
            "type" : "Point"
         },
         "properties" : {
            "land_area" : 1541000,
            "locality_name" : "Berga",
            "municipality_code" : "2108",
            "municipality_name" : "Högsby kommun",
            "population" : "724"
         },
         "type" : "Feature"
      },
      {
         "geometry" : {
            "coordinates" : [
               12.5755555555556,
               56.9777777777778
            ],
            "type" : "Point"
         },
         "properties" : {
            "land_area" : 309100,
            "locality_name" : "Bergagård",
            "municipality_code" : "3908",
            "municipality_name" : "Falkenbergs kommun",
            "population" : "250"
         },
         "type" : "Feature"
      },
      {
         "geometry" : {
            "coordinates" : [
               17.04,
               60.9277777777778
            ],
            "type" : "Point"
         },
         "properties" : {
            "land_area" : 1888000,
            "locality_name" : "Bergby",
            "municipality_code" : "7016",
            "municipality_name" : "Gävle kommun",
            "population" : "816"
         },
         "type" : "Feature"
      },
      {
         "geometry" : {
            "coordinates" : [
               17.3855555555556,
               62.5280555555556
            ],
            "type" : "Point"
         },
         "properties" : {
            "land_area" : 1982600,
            "locality_name" : "Bergeforsen",
            "municipality_code" : "7416",
            "municipality_name" : "Timrå kommun",
            "population" : "1563"
         },
         "type" : "Feature"
      },
      {
         "geometry" : {
            "coordinates" : [
               12.5833333333333,
               57.5
            ],
            "type" : "Point"
         },
         "properties" : {
            "land_area" : 791300,
            "locality_name" : "Berghem",
            "municipality_code" : "4724",
            "municipality_name" : "Marks kommun",
            "population" : "360"
         },
         "type" : "Feature"
      },
      {
         "geometry" : {
            "coordinates" : [
               16.0794444444444,
               56.3902777777778
            ],
            "type" : "Point"
         },
         "properties" : {
            "land_area" : 1520000,
            "locality_name" : "Bergkvara",
            "municipality_code" : "2112",
            "municipality_name" : "Torsås kommun",
            "population" : "940"
         },
         "type" : "Feature"
      },
      {
         "geometry" : {
            "coordinates" : [
               22.1038888888889,
               65.5769444444444
            ],
            "type" : "Point"
         },
         "properties" : {
            "land_area" : 3094000,
            "locality_name" : "Bergnäset",
            "municipality_code" : "8532",
            "municipality_name" : "Luleå kommun",
            "population" : "3648"
         },
         "type" : "Feature"
      },
      {
         "geometry" : {
            "coordinates" : [
               21.075,
               64.725
            ],
            "type" : "Point"
         },
         "properties" : {
            "land_area" : 1377500,
            "locality_name" : "Bergsbyn",
            "municipality_code" : "8116",
            "municipality_name" : "Skellefteå kommun",
            "population" : "1780"
         },
         "type" : "Feature"
      },
      {
         "geometry" : {
            "coordinates" : [
               16.9158333333333,
               58.7416666666667
            ],
            "type" : "Point"
         },
         "properties" : {
            "land_area" : 617300,
            "locality_name" : "Bergshammar",
            "municipality_code" : "0708",
            "municipality_name" : "Nyköpings kommun",
            "population" : "790"
         },
         "type" : "Feature"
      },
      {
         "geometry" : {
            "coordinates" : [
               18.6294444444444,
               59.6333333333333
            ],
            "type" : "Point"
         },
         "properties" : {
            "land_area" : 1597600,
            "locality_name" : "Bergshamra",
            "municipality_code" : "0100",
            "municipality_name" : "Norrtälje kommun",
            "population" : "749"
         },
         "type" : "Feature"
      },
      {
         "geometry" : {
            "coordinates" : [
               17.0666666666667,
               61.9833333333333
            ],
            "type" : "Point"
         },
         "properties" : {
            "land_area" : 1652700,
            "locality_name" : "Bergsjö",
            "municipality_code" : "7020",
            "municipality_name" : "Nordanstigs kommun",
            "population" : "1266"
         },
         "type" : "Feature"
      },
      {
         "geometry" : {
            "coordinates" : [
               13.1736111111111,
               55.6777777777778
            ],
            "type" : "Point"
         },
         "properties" : {
            "land_area" : 132200,
            "locality_name" : "Bergströmshusen",
            "municipality_code" : "2814",
            "municipality_name" : "Staffanstorps kommun",
            "population" : "209"
         },
         "type" : "Feature"
      },
      {
         "geometry" : {
            "coordinates" : [
               21.3833333333333,
               65.3111111111111
            ],
            "type" : "Point"
         },
         "properties" : {
            "land_area" : 2646400,
            "locality_name" : "Bergsviken",
            "municipality_code" : "8536",
            "municipality_name" : "Piteå kommun",
            "population" : "2283"
         },
         "type" : "Feature"
      },
      {
         "geometry" : {
            "coordinates" : [
               16.8341666666667,
               61.26
            ],
            "type" : "Point"
         },
         "properties" : {
            "land_area" : 2004000,
            "locality_name" : "Bergvik",
            "municipality_code" : "7024",
            "municipality_name" : "Söderhamns kommun",
            "population" : "834"
         },
         "type" : "Feature"
      },
      {
         "geometry" : {
            "coordinates" : [
               15.7308333333333,
               58.2344444444444
            ],
            "type" : "Point"
         },
         "properties" : {
            "land_area" : 533500,
            "locality_name" : "Bestorp",
            "municipality_code" : "1020",
            "municipality_name" : "Linköpings kommun",
            "population" : "475"
         },
         "type" : "Feature"
      },
      {
         "geometry" : {
            "coordinates" : [
               16.6419444444444,
               58.9061111111111
            ],
            "type" : "Point"
         },
         "properties" : {
            "land_area" : 992600,
            "locality_name" : "Bettna",
            "municipality_code" : "0712",
            "municipality_name" : "Flens kommun",
            "population" : "412"
         },
         "type" : "Feature"
      },
      {
         "geometry" : {
            "coordinates" : [
               16.2144444444444,
               59.0883333333333
            ],
            "type" : "Point"
         },
         "properties" : {
            "land_area" : 615200,
            "locality_name" : "Bie",
            "municipality_code" : "0716",
            "municipality_name" : "Katrineholms kommun",
            "population" : "528"
         },
         "type" : "Feature"
      },
      {
         "geometry" : {
            "coordinates" : [
               11.9466666666667,
               57.5761111111111
            ],
            "type" : "Point"
         },
         "properties" : {
            "land_area" : 10138500,
            "locality_name" : "Billdal",
            "municipality_code" : "4300",
            "municipality_name" : "Kungsbacka kommun",
            "population" : "10289"
         },
         "type" : "Feature"
      },
      {
         "geometry" : {
            "coordinates" : [
               12.9991666666667,
               55.8827777777778
            ],
            "type" : "Point"
         },
         "properties" : {
            "land_area" : 1061300,
            "locality_name" : "Billeberga",
            "municipality_code" : "3340",
            "municipality_name" : "Svalövs kommun",
            "population" : "987"
         },
         "type" : "Feature"
      },
      {
         "geometry" : {
            "coordinates" : [
               12.9666666666667,
               56.05
            ],
            "type" : "Point"
         },
         "properties" : {
            "land_area" : 2907200,
            "locality_name" : "Billesholm",
            "municipality_code" : "3344",
            "municipality_name" : "Bjuvs kommun",
            "population" : "2910"
         },
         "type" : "Feature"
      },
      {
         "geometry" : {
            "coordinates" : [
               13.3333333333333,
               55.9625
            ],
            "type" : "Point"
         },
         "properties" : {
            "land_area" : 589900,
            "locality_name" : "Billinge",
            "municipality_code" : "3348",
            "municipality_name" : "Eslövs kommun",
            "population" : "415"
         },
         "type" : "Feature"
      },
      {
         "geometry" : {
            "coordinates" : [
               12.25,
               58.9833333333333
            ],
            "type" : "Point"
         },
         "properties" : {
            "land_area" : 2315100,
            "locality_name" : "Billingsfors",
            "municipality_code" : "4728",
            "municipality_name" : "Bengtsfors kommun",
            "population" : "1134"
         },
         "type" : "Feature"
      },
      {
         "geometry" : {
            "coordinates" : [
               18.5116666666667,
               63.3219444444444
            ],
            "type" : "Point"
         },
         "properties" : {
            "land_area" : 1071000,
            "locality_name" : "Billsta",
            "municipality_code" : "7420",
            "municipality_name" : "Örnsköldsviks kommun",
            "population" : "361"
         },
         "type" : "Feature"
      },
      {
         "geometry" : {
            "coordinates" : [
               19.2269444444444,
               63.9408333333333
            ],
            "type" : "Point"
         },
         "properties" : {
            "land_area" : 1716200,
            "locality_name" : "Bjurholm",
            "municipality_code" : "8120",
            "municipality_name" : "Bjurholms kommun",
            "population" : "968"
         },
         "type" : "Feature"
      },
      {
         "geometry" : {
            "coordinates" : [
               15.4530555555556,
               60.7386111111111
            ],
            "type" : "Point"
         },
         "properties" : {
            "land_area" : 3247800,
            "locality_name" : "Bjursås",
            "municipality_code" : "6424",
            "municipality_name" : "Falu kommun",
            "population" : "1839"
         },
         "type" : "Feature"
      },
      {
         "geometry" : {
            "coordinates" : [
               12.9194444444444,
               56.0861111111111
            ],
            "type" : "Point"
         },
         "properties" : {
            "land_area" : 5442300,
            "locality_name" : "Bjuv",
            "municipality_code" : "3352",
            "municipality_name" : "Bjuvs kommun",
            "population" : "6832"
         },
         "type" : "Feature"
      },
      {
         "geometry" : {
            "coordinates" : [
               13.7113888888889,
               56.2894444444444
            ],
            "type" : "Point"
         },
         "properties" : {
            "land_area" : 3638000,
            "locality_name" : "Bjärnum",
            "municipality_code" : "2816",
            "municipality_name" : "Hässleholms kommun",
            "population" : "2674"
         },
         "type" : "Feature"
      },
      {
         "geometry" : {
            "coordinates" : [
               13.0166666666667,
               55.7166666666667
            ],
            "type" : "Point"
         },
         "properties" : {
            "land_area" : 4791000,
            "locality_name" : "Bjärred",
            "municipality_code" : "3356",
            "municipality_name" : "Lomma kommun",
            "population" : "9542"
         },
         "type" : "Feature"
      },
      {
         "geometry" : {
            "coordinates" : [
               13.6877777777778,
               55.7230555555556
            ],
            "type" : "Point"
         },
         "properties" : {
            "land_area" : 522200,
            "locality_name" : "Bjärsjölagård",
            "municipality_code" : "3360",
            "municipality_name" : "Sjöbo kommun",
            "population" : "324"
         },
         "type" : "Feature"
      },
      {
         "geometry" : {
            "coordinates" : [
               18.5,
               63.2
            ],
            "type" : "Point"
         },
         "properties" : {
            "land_area" : 2049000,
            "locality_name" : "Bjästa",
            "municipality_code" : "7424",
            "municipality_name" : "Örnsköldsviks kommun",
            "population" : "1808"
         },
         "type" : "Feature"
      },
      {
         "geometry" : {
            "coordinates" : [
               14.7175,
               60.4580555555556
            ],
            "type" : "Point"
         },
         "properties" : {
            "land_area" : 1837700,
            "locality_name" : "Björbo",
            "municipality_code" : "6428",
            "municipality_name" : "Gagnefs kommun",
            "population" : "697"
         },
         "type" : "Feature"
      },
      {
         "geometry" : {
            "coordinates" : [
               12.3277777777778,
               57.875
            ],
            "type" : "Point"
         },
         "properties" : {
            "land_area" : 1809300,
            "locality_name" : "Björboholm",
            "municipality_code" : "4732",
            "municipality_name" : "Lerums kommun",
            "population" : "963"
         },
         "type" : "Feature"
      },
      {
         "geometry" : {
            "coordinates" : [
               17.1911111111111,
               60.7655555555556
            ],
            "type" : "Point"
         },
         "properties" : {
            "land_area" : 599300,
            "locality_name" : "Björke",
            "municipality_code" : "7028",
            "municipality_name" : "Gävle kommun",
            "population" : "349"
         },
         "type" : "Feature"
      },
      {
         "geometry" : {
            "coordinates" : [
               12.525,
               57.425
            ],
            "type" : "Point"
         },
         "properties" : {
            "land_area" : 604100,
            "locality_name" : "Björketorp",
            "municipality_code" : "4736",
            "municipality_name" : "Marks kommun",
            "population" : "467"
         },
         "type" : "Feature"
      },
      {
         "geometry" : {
            "coordinates" : [
               17.55,
               60.0333333333333
            ],
            "type" : "Point"
         },
         "properties" : {
            "land_area" : 2704500,
            "locality_name" : "Björklinge",
            "municipality_code" : "0512",
            "municipality_name" : "Uppsala kommun",
            "population" : "3269"
         },
         "type" : "Feature"
      },
      {
         "geometry" : {
            "coordinates" : [
               16.5208333333333,
               58.8344444444444
            ],
            "type" : "Point"
         },
         "properties" : {
            "land_area" : 957500,
            "locality_name" : "Björkvik",
            "municipality_code" : "0720",
            "municipality_name" : "Katrineholms kommun",
            "population" : "492"
         },
         "type" : "Feature"
      },
      {
         "geometry" : {
            "coordinates" : [
               16.6902777777778,
               56.8813888888889
            ],
            "type" : "Point"
         },
         "properties" : {
            "land_area" : 109600,
            "locality_name" : "Björkviken",
            "municipality_code" : "2114",
            "municipality_name" : "Borgholms kommun",
            "population" : "208"
         },
         "type" : "Feature"
      },
      {
         "geometry" : {
            "coordinates" : [
               11.6833333333333,
               57.7361111111111
            ],
            "type" : "Point"
         },
         "properties" : {
            "land_area" : 908400,
            "locality_name" : "Björkö",
            "municipality_code" : "4304",
            "municipality_name" : "Öckerö kommun",
            "population" : "1427"
         },
         "type" : "Feature"
      },
      {
         "geometry" : {
            "coordinates" : [
               14.9052777777778,
               57.5197222222222
            ],
            "type" : "Point"
         },
         "properties" : {
            "land_area" : 674000,
            "locality_name" : "Björköby",
            "municipality_code" : "1420",
            "municipality_name" : "Vetlanda kommun",
            "population" : "273"
         },
         "type" : "Feature"
      },
      {
         "geometry" : {
            "coordinates" : [
               11.825,
               57.7627777777778
            ],
            "type" : "Point"
         },
         "properties" : {
            "land_area" : 887300,
            "locality_name" : "Björlanda",
            "municipality_code" : "4302",
            "municipality_name" : "Göteborgs kommun",
            "population" : "608"
         },
         "type" : "Feature"
      },
      {
         "geometry" : {
            "coordinates" : [
               18.5988888888889,
               63.5505555555556
            ],
            "type" : "Point"
         },
         "properties" : {
            "land_area" : 677000,
            "locality_name" : "Björna",
            "municipality_code" : "7428",
            "municipality_name" : "Örnsköldsviks kommun",
            "population" : "413"
         },
         "type" : "Feature"
      },
      {
         "geometry" : {
            "coordinates" : [
               14.4705555555556,
               59.3541666666667
            ],
            "type" : "Point"
         },
         "properties" : {
            "land_area" : 1570000,
            "locality_name" : "Björneborg",
            "municipality_code" : "5612",
            "municipality_name" : "Kristinehamns kommun",
            "population" : "1099"
         },
         "type" : "Feature"
      },
      {
         "geometry" : {
            "coordinates" : [
               17.1597222222222,
               59.0661111111111
            ],
            "type" : "Point"
         },
         "properties" : {
            "land_area" : 859500,
            "locality_name" : "Björnlunda",
            "municipality_code" : "0724",
            "municipality_name" : "Gnesta kommun",
            "population" : "827"
         },
         "type" : "Feature"
      },
      {
         "geometry" : {
            "coordinates" : [
               13.1458333333333,
               63.3791666666667
            ],
            "type" : "Point"
         },
         "properties" : {
            "land_area" : 399500,
            "locality_name" : "Björnänge",
            "municipality_code" : "7810",
            "municipality_name" : "Åre kommun",
            "population" : "254"
         },
         "type" : "Feature"
      },
      {
         "geometry" : {
            "coordinates" : [
               14.6063888888889,
               57.1733333333333
            ],
            "type" : "Point"
         },
         "properties" : {
            "land_area" : 164200,
            "locality_name" : "Björnö",
            "municipality_code" : "1818",
            "municipality_name" : "Växjö kommun",
            "population" : "215"
         },
         "type" : "Feature"
      },
      {
         "geometry" : {
            "coordinates" : [
               18.5222222222222,
               59.2222222222222
            ],
            "type" : "Point"
         },
         "properties" : {
            "land_area" : 1257600,
            "locality_name" : "Björnömalmen och Klacknäset",
            "municipality_code" : "0106",
            "municipality_name" : "Värmdö kommun",
            "population" : "624"
         },
         "type" : "Feature"
      },
      {
         "geometry" : {
            "coordinates" : [
               16.0208333333333,
               58.3336111111111
            ],
            "type" : "Point"
         },
         "properties" : {
            "land_area" : 625300,
            "locality_name" : "Björsäter",
            "municipality_code" : "1024",
            "municipality_name" : "Åtvidabergs kommun",
            "population" : "443"
         },
         "type" : "Feature"
      },
      {
         "geometry" : {
            "coordinates" : [
               17.3833333333333,
               59.9625
            ],
            "type" : "Point"
         },
         "properties" : {
            "land_area" : 646100,
            "locality_name" : "Blackstalund",
            "municipality_code" : "0650",
            "municipality_name" : "Uppsala kommun",
            "population" : "210"
         },
         "type" : "Feature"
      },
      {
         "geometry" : {
            "coordinates" : [
               11.5666666666667,
               57.95
            ],
            "type" : "Point"
         },
         "properties" : {
            "land_area" : 410000,
            "locality_name" : "Bleket",
            "municipality_code" : "4308",
            "municipality_name" : "Tjörns kommun",
            "population" : "240"
         },
         "type" : "Feature"
      },
      {
         "geometry" : {
            "coordinates" : [
               13.6,
               55.5833333333333
            ],
            "type" : "Point"
         },
         "properties" : {
            "land_area" : 1212200,
            "locality_name" : "Blentarp",
            "municipality_code" : "3364",
            "municipality_name" : "Sjöbo kommun",
            "population" : "1216"
         },
         "type" : "Feature"
      },
      {
         "geometry" : {
            "coordinates" : [
               13.4922222222222,
               57.9297222222222
            ],
            "type" : "Point"
         },
         "properties" : {
            "land_area" : 867700,
            "locality_name" : "Blidsberg",
            "municipality_code" : "4740",
            "municipality_name" : "Ulricehamns kommun",
            "population" : "508"
         },
         "type" : "Feature"
      },
      {
         "geometry" : {
            "coordinates" : [
               14.0575,
               58.2811111111111
            ],
            "type" : "Point"
         },
         "properties" : {
            "land_area" : 451000,
            "locality_name" : "Blikstorp",
            "municipality_code" : "5212",
            "municipality_name" : "Hjo kommun",
            "population" : "222"
         },
         "type" : "Feature"
      },
      {
         "geometry" : {
            "coordinates" : [
               13.7888888888889,
               59.6055555555556
            ],
            "type" : "Point"
         },
         "properties" : {
            "land_area" : 998500,
            "locality_name" : "Blombacka",
            "municipality_code" : "5616",
            "municipality_name" : "Karlstads kommun",
            "population" : "217"
         },
         "type" : "Feature"
      },
      {
         "geometry" : {
            "coordinates" : [
               16.3311111111111,
               56.9819444444444
            ],
            "type" : "Point"
         },
         "properties" : {
            "land_area" : 2531900,
            "locality_name" : "Blomstermåla",
            "municipality_code" : "2120",
            "municipality_name" : "Mönsterås kommun",
            "population" : "1527"
         },
         "type" : "Feature"
      },
      {
         "geometry" : {
            "coordinates" : [
               21.2872222222222,
               65.2652777777778
            ],
            "type" : "Point"
         },
         "properties" : {
            "land_area" : 641700,
            "locality_name" : "Blåsmark",
            "municipality_code" : "8540",
            "municipality_name" : "Piteå kommun",
            "population" : "339"
         },
         "type" : "Feature"
      },
      {
         "geometry" : {
            "coordinates" : [
               15.0658333333333,
               60.1255555555556
            ],
            "type" : "Point"
         },
         "properties" : {
            "land_area" : 1318700,
            "locality_name" : "Blötberget",
            "municipality_code" : "6432",
            "municipality_name" : "Ludvika kommun",
            "population" : "428"
         },
         "type" : "Feature"
      },
      {
         "geometry" : {
            "coordinates" : [
               16.0663888888889,
               57.2630555555556
            ],
            "type" : "Point"
         },
         "properties" : {
            "land_area" : 799600,
            "locality_name" : "Bockara",
            "municipality_code" : "2124",
            "municipality_name" : "Oskarshamns kommun",
            "population" : "316"
         },
         "type" : "Feature"
      },
      {
         "geometry" : {
            "coordinates" : [
               15.2119444444444,
               61.0113888888889
            ],
            "type" : "Point"
         },
         "properties" : {
            "land_area" : 2105300,
            "locality_name" : "Boda",
            "municipality_code" : "6436",
            "municipality_name" : "Rättviks kommun",
            "population" : "541"
         },
         "type" : "Feature"
      },
      {
         "geometry" : {
            "coordinates" : [
               14.6997222222222,
               57.5061111111111
            ],
            "type" : "Point"
         },
         "properties" : {
            "land_area" : 2539600,
            "locality_name" : "Bodafors",
            "municipality_code" : "1424",
            "municipality_name" : "Nässjö kommun",
            "population" : "1886"
         },
         "type" : "Feature"
      },
      {
         "geometry" : {
            "coordinates" : [
               21.7166666666667,
               65.8333333333333
            ],
            "type" : "Point"
         },
         "properties" : {
            "land_area" : 19977400,
            "locality_name" : "Boden",
            "municipality_code" : "8544",
            "municipality_name" : "Bodens kommun",
            "population" : "18277"
         },
         "type" : "Feature"
      },
      {
         "geometry" : {
            "coordinates" : [
               16.2972222222222,
               56.6513888888889
            ],
            "type" : "Point"
         },
         "properties" : {
            "land_area" : 467600,
            "locality_name" : "Boholmarna",
            "municipality_code" : "2130",
            "municipality_name" : "Kalmar kommun",
            "population" : "297"
         },
         "type" : "Feature"
      },
      {
         "geometry" : {
            "coordinates" : [
               20.3911111111111,
               64.8769444444444
            ],
            "type" : "Point"
         },
         "properties" : {
            "land_area" : 1944300,
            "locality_name" : "Boliden",
            "municipality_code" : "8132",
            "municipality_name" : "Skellefteå kommun",
            "population" : "1566"
         },
         "type" : "Feature"
      },
      {
         "geometry" : {
            "coordinates" : [
               12.5666666666667,
               57.6666666666667
            ],
            "type" : "Point"
         },
         "properties" : {
            "land_area" : 2567400,
            "locality_name" : "Bollebygd",
            "municipality_code" : "4744",
            "municipality_name" : "Bollebygds kommun",
            "population" : "3566"
         },
         "type" : "Feature"
      },
      {
         "geometry" : {
            "coordinates" : [
               16.4,
               61.35
            ],
            "type" : "Point"
         },
         "properties" : {
            "land_area" : 12873500,
            "locality_name" : "Bollnäs",
            "municipality_code" : "7036",
            "municipality_name" : "Bollnäs kommun",
            "population" : "12842"
         },
         "type" : "Feature"
      },
      {
         "geometry" : {
            "coordinates" : [
               17.6722222222222,
               63
            ],
            "type" : "Point"
         },
         "properties" : {
            "land_area" : 4436700,
            "locality_name" : "Bollstabruk",
            "municipality_code" : "7432",
            "municipality_name" : "Kramfors kommun",
            "population" : "1871"
         },
         "type" : "Feature"
      },
      {
         "geometry" : {
            "coordinates" : [
               14.4872222222222,
               61.0722222222222
            ],
            "type" : "Point"
         },
         "properties" : {
            "land_area" : 923600,
            "locality_name" : "Bonäs",
            "municipality_code" : "6440",
            "municipality_name" : "Mora kommun",
            "population" : "457"
         },
         "type" : "Feature"
      },
      {
         "geometry" : {
            "coordinates" : [
               18.2447222222222,
               59.3211111111111
            ],
            "type" : "Point"
         },
         "properties" : {
            "land_area" : 16259300,
            "locality_name" : "Boo",
            "municipality_code" : "0104",
            "municipality_name" : "Nacka kommun",
            "population" : "24052"
         },
         "type" : "Feature"
      },
      {
         "geometry" : {
            "coordinates" : [
               14.1705555555556,
               57.1130555555556
            ],
            "type" : "Point"
         },
         "properties" : {
            "land_area" : 1573600,
            "locality_name" : "Bor",
            "municipality_code" : "1428",
            "municipality_name" : "Värnamo kommun",
            "population" : "1256"
         },
         "type" : "Feature"
      },
      {
         "geometry" : {
            "coordinates" : [
               15.2816666666667,
               58.5638888888889
            ],
            "type" : "Point"
         },
         "properties" : {
            "land_area" : 2402500,
            "locality_name" : "Borensberg",
            "municipality_code" : "1028",
            "municipality_name" : "Motala kommun",
            "population" : "2886"
         },
         "type" : "Feature"
      },
      {
         "geometry" : {
            "coordinates" : [
               15.5558333333333,
               58.7291666666667
            ],
            "type" : "Point"
         },
         "properties" : {
            "land_area" : 423000,
            "locality_name" : "Borggård",
            "municipality_code" : "1032",
            "municipality_name" : "Finspångs kommun",
            "population" : "238"
         },
         "type" : "Feature"
      },
      {
         "geometry" : {
            "coordinates" : [
               16.6616666666667,
               56.8780555555556
            ],
            "type" : "Point"
         },
         "properties" : {
            "land_area" : 2557600,
            "locality_name" : "Borgholm",
            "municipality_code" : "2132",
            "municipality_name" : "Borgholms kommun",
            "population" : "3071"
         },
         "type" : "Feature"
      },
      {
         "geometry" : {
            "coordinates" : [
               13.0247222222222,
               57.8794444444444
            ],
            "type" : "Point"
         },
         "properties" : {
            "land_area" : 688000,
            "locality_name" : "Borgstena",
            "municipality_code" : "4748",
            "municipality_name" : "Borås kommun",
            "population" : "386"
         },
         "type" : "Feature"
      },
      {
         "geometry" : {
            "coordinates" : [
               15.4363888888889,
               60.4827777777778
            ],
            "type" : "Point"
         },
         "properties" : {
            "land_area" : 34355300,
            "locality_name" : "Borlänge",
            "municipality_code" : "6444",
            "municipality_name" : "Borlänge kommun",
            "population" : "41734"
         },
         "type" : "Feature"
      },
      {
         "geometry" : {
            "coordinates" : [
               14.1786111111111,
               55.4577777777778
            ],
            "type" : "Point"
         },
         "properties" : {
            "land_area" : 881100,
            "locality_name" : "Borrby",
            "municipality_code" : "2820",
            "municipality_name" : "Simrishamns kommun",
            "population" : "930"
         },
         "type" : "Feature"
      },
      {
         "geometry" : {
            "coordinates" : [
               12.9333333333333,
               57.7166666666667
            ],
            "type" : "Point"
         },
         "properties" : {
            "land_area" : 31396500,
            "locality_name" : "Borås",
            "municipality_code" : "4752",
            "municipality_name" : "Borås kommun",
            "population" : "66273"
         },
         "type" : "Feature"
      },
      {
         "geometry" : {
            "coordinates" : [
               12.85,
               57.6666666666667
            ],
            "type" : "Point"
         },
         "properties" : {
            "land_area" : 469600,
            "locality_name" : "Bosnäs",
            "municipality_code" : "4310",
            "municipality_name" : "Borås kommun",
            "population" : "308"
         },
         "type" : "Feature"
      },
      {
         "geometry" : {
            "coordinates" : [
               20.2666666666667,
               64.25
            ],
            "type" : "Point"
         },
         "properties" : {
            "land_area" : 486800,
            "locality_name" : "Botsmark",
            "municipality_code" : "8136",
            "municipality_name" : "Umeå kommun",
            "population" : "201"
         },
         "type" : "Feature"
      },
      {
         "geometry" : {
            "coordinates" : [
               13.8261111111111,
               57.7694444444444
            ],
            "type" : "Point"
         },
         "properties" : {
            "land_area" : 833000,
            "locality_name" : "Bottnaryd",
            "municipality_code" : "1432",
            "municipality_name" : "Jönköpings kommun",
            "population" : "713"
         },
         "type" : "Feature"
      },
      {
         "geometry" : {
            "coordinates" : [
               11.3222222222222,
               58.475
            ],
            "type" : "Point"
         },
         "properties" : {
            "land_area" : 810400,
            "locality_name" : "Bovallstrand",
            "municipality_code" : "4312",
            "municipality_name" : "Sotenäs kommun",
            "population" : "474"
         },
         "type" : "Feature"
      },
      {
         "geometry" : {
            "coordinates" : [
               15.0519444444444,
               58.1963888888889
            ],
            "type" : "Point"
         },
         "properties" : {
            "land_area" : 4394300,
            "locality_name" : "Boxholm",
            "municipality_code" : "1040",
            "municipality_name" : "Boxholms kommun",
            "population" : "3194"
         },
         "type" : "Feature"
      },
      {
         "geometry" : {
            "coordinates" : [
               14.3458333333333,
               55.5138888888889
            ],
            "type" : "Point"
         },
         "properties" : {
            "land_area" : 689400,
            "locality_name" : "Brantevik",
            "municipality_code" : "2824",
            "municipality_name" : "Simrishamns kommun",
            "population" : "409"
         },
         "type" : "Feature"
      },
      {
         "geometry" : {
            "coordinates" : [
               11.4833333333333,
               58.3833333333333
            ],
            "type" : "Point"
         },
         "properties" : {
            "land_area" : 1848000,
            "locality_name" : "Brastad",
            "municipality_code" : "4316",
            "municipality_name" : "Lysekils kommun",
            "population" : "1846"
         },
         "type" : "Feature"
      },
      {
         "geometry" : {
            "coordinates" : [
               11.9833333333333,
               57.55
            ],
            "type" : "Point"
         },
         "properties" : {
            "land_area" : 579900,
            "locality_name" : "Brattås",
            "municipality_code" : "3910",
            "municipality_name" : "Kungsbacka kommun",
            "population" : "384"
         },
         "type" : "Feature"
      },
      {
         "geometry" : {
            "coordinates" : [
               15.0536111111111,
               57.0622222222222
            ],
            "type" : "Point"
         },
         "properties" : {
            "land_area" : 1709500,
            "locality_name" : "Braås",
            "municipality_code" : "1820",
            "municipality_name" : "Växjö kommun",
            "population" : "1547"
         },
         "type" : "Feature"
      },
      {
         "geometry" : {
            "coordinates" : [
               12.9027777777778,
               57.8055555555556
            ],
            "type" : "Point"
         },
         "properties" : {
            "land_area" : 306100,
            "locality_name" : "Bredared",
            "municipality_code" : "4756",
            "municipality_name" : "Borås kommun",
            "population" : "227"
         },
         "type" : "Feature"
      },
      {
         "geometry" : {
            "coordinates" : [
               13.7375,
               57.1758333333333
            ],
            "type" : "Point"
         },
         "properties" : {
            "land_area" : 1988500,
            "locality_name" : "Bredaryd",
            "municipality_code" : "1436",
            "municipality_name" : "Värnamo kommun",
            "population" : "1466"
         },
         "type" : "Feature"
      },
      {
         "geometry" : {
            "coordinates" : [
               18.1,
               63.45
            ],
            "type" : "Point"
         },
         "properties" : {
            "land_area" : 2343300,
            "locality_name" : "Bredbyn",
            "municipality_code" : "7444",
            "municipality_name" : "Örnsköldsviks kommun",
            "population" : "1186"
         },
         "type" : "Feature"
      },
      {
         "geometry" : {
            "coordinates" : [
               17.0666666666667,
               59.6
            ],
            "type" : "Point"
         },
         "properties" : {
            "land_area" : 846100,
            "locality_name" : "Bredsand",
            "municipality_code" : "0612",
            "municipality_name" : "Enköpings kommun",
            "population" : "465"
         },
         "type" : "Feature"
      },
      {
         "geometry" : {
            "coordinates" : [
               23.2108333333333,
               65.8311111111111
            ],
            "type" : "Point"
         },
         "properties" : {
            "land_area" : 431300,
            "locality_name" : "Bredviken",
            "municipality_code" : "8556",
            "municipality_name" : "Kalix kommun",
            "population" : "365"
         },
         "type" : "Feature"
      },
      {
         "geometry" : {
            "coordinates" : [
               18.2,
               59.35
            ],
            "type" : "Point"
         },
         "properties" : {
            "land_area" : 3967900,
            "locality_name" : "Brevik",
            "municipality_code" : "0108",
            "municipality_name" : "Lidingö kommun",
            "population" : "8772"
         },
         "type" : "Feature"
      },
      {
         "geometry" : {
            "coordinates" : [
               18.3333333333333,
               59.2333333333333
            ],
            "type" : "Point"
         },
         "properties" : {
            "land_area" : 5996600,
            "locality_name" : "Brevikshalvön",
            "municipality_code" : "0110",
            "municipality_name" : "Tyresö kommun",
            "population" : "2018"
         },
         "type" : "Feature"
      },
      {
         "geometry" : {
            "coordinates" : [
               17.65,
               59.5166666666667
            ],
            "type" : "Point"
         },
         "properties" : {
            "land_area" : 3007400,
            "locality_name" : "Bro",
            "municipality_code" : "0112",
            "municipality_name" : "Upplands-Bro kommun",
            "population" : "7050"
         },
         "type" : "Feature"
      },
      {
         "geometry" : {
            "coordinates" : [
               13.2583333333333,
               57.1194444444444
            ],
            "type" : "Point"
         },
         "properties" : {
            "land_area" : 691000,
            "locality_name" : "Broaryd",
            "municipality_code" : "1440",
            "municipality_name" : "Gislaveds kommun",
            "population" : "271"
         },
         "type" : "Feature"
      },
      {
         "geometry" : {
            "coordinates" : [
               14.0758333333333,
               56.255
            ],
            "type" : "Point"
         },
         "properties" : {
            "land_area" : 3684900,
            "locality_name" : "Broby",
            "municipality_code" : "2828",
            "municipality_name" : "Östra Göinge kommun",
            "population" : "2920"
         },
         "type" : "Feature"
      },
      {
         "geometry" : {
            "coordinates" : [
               15.6833333333333,
               58.2166666666667
            ],
            "type" : "Point"
         },
         "properties" : {
            "land_area" : 643800,
            "locality_name" : "Brokind",
            "municipality_code" : "1044",
            "municipality_name" : "Linköpings kommun",
            "population" : "502"
         },
         "type" : "Feature"
      },
      {
         "geometry" : {
            "coordinates" : [
               14.4672222222222,
               56.075
            ],
            "type" : "Point"
         },
         "properties" : {
            "land_area" : 5577700,
            "locality_name" : "Bromölla",
            "municipality_code" : "2832",
            "municipality_name" : "Bromölla kommun",
            "population" : "7595"
         },
         "type" : "Feature"
      },
      {
         "geometry" : {
            "coordinates" : [
               18.25,
               59.5666666666667
            ],
            "type" : "Point"
         },
         "properties" : {
            "land_area" : 177900,
            "locality_name" : "Brottby",
            "municipality_code" : "0116",
            "municipality_name" : "Vallentuna kommun",
            "population" : "205"
         },
         "type" : "Feature"
      },
      {
         "geometry" : {
            "coordinates" : [
               14.8166666666667,
               63.0833333333333
            ],
            "type" : "Point"
         },
         "properties" : {
            "land_area" : 2847600,
            "locality_name" : "Brunflo",
            "municipality_code" : "7812",
            "municipality_name" : "Östersunds kommun",
            "population" : "3890"
         },
         "type" : "Feature"
      },
      {
         "geometry" : {
            "coordinates" : [
               18.4236111111111,
               59.285
            ],
            "type" : "Point"
         },
         "properties" : {
            "land_area" : 963400,
            "locality_name" : "Brunn",
            "municipality_code" : "0120",
            "municipality_name" : "Värmdö kommun",
            "population" : "950"
         },
         "type" : "Feature"
      },
      {
         "geometry" : {
            "coordinates" : [
               17.75,
               59.5
            ],
            "type" : "Point"
         },
         "properties" : {
            "land_area" : 1773900,
            "locality_name" : "Brunna",
            "municipality_code" : "0124",
            "municipality_name" : "Upplands-Bro kommun",
            "population" : "3925"
         },
         "type" : "Feature"
      },
      {
         "geometry" : {
            "coordinates" : [
               13.9211111111111,
               61.2841666666667
            ],
            "type" : "Point"
         },
         "properties" : {
            "land_area" : 1209200,
            "locality_name" : "Brunnsberg",
            "municipality_code" : "6448",
            "municipality_name" : "Älvdalens kommun",
            "population" : "222"
         },
         "type" : "Feature"
      },
      {
         "geometry" : {
            "coordinates" : [
               15.27,
               57.6427777777778
            ],
            "type" : "Point"
         },
         "properties" : {
            "land_area" : 638200,
            "locality_name" : "Bruzaholm",
            "municipality_code" : "1444",
            "municipality_name" : "Eksjö kommun",
            "population" : "250"
         },
         "type" : "Feature"
      },
      {
         "geometry" : {
            "coordinates" : [
               12.3527777777778,
               58.5611111111111
            ],
            "type" : "Point"
         },
         "properties" : {
            "land_area" : 1524700,
            "locality_name" : "Brålanda",
            "municipality_code" : "4760",
            "municipality_name" : "Vänersborgs kommun",
            "population" : "1385"
         },
         "type" : "Feature"
      },
      {
         "geometry" : {
            "coordinates" : [
               15.4216666666667,
               62.7505555555556
            ],
            "type" : "Point"
         },
         "properties" : {
            "land_area" : 2002400,
            "locality_name" : "Bräcke",
            "municipality_code" : "7816",
            "municipality_name" : "Bräcke kommun",
            "population" : "1651"
         },
         "type" : "Feature"
      },
      {
         "geometry" : {
            "coordinates" : [
               15.1163888888889,
               56.2302777777778
            ],
            "type" : "Point"
         },
         "properties" : {
            "land_area" : 2073600,
            "locality_name" : "Bräkne-Hoby",
            "municipality_code" : "2604",
            "municipality_name" : "Ronneby kommun",
            "population" : "1689"
         },
         "type" : "Feature"
      },
      {
         "geometry" : {
            "coordinates" : [
               22.3344444444444,
               65.6975
            ],
            "type" : "Point"
         },
         "properties" : {
            "land_area" : 577800,
            "locality_name" : "Brändön",
            "municipality_code" : "8558",
            "municipality_name" : "Luleå kommun",
            "population" : "287"
         },
         "type" : "Feature"
      },
      {
         "geometry" : {
            "coordinates" : [
               20.0666666666667,
               63.8833333333333
            ],
            "type" : "Point"
         },
         "properties" : {
            "land_area" : 282100,
            "locality_name" : "Brännland",
            "municipality_code" : "8140",
            "municipality_name" : "Umeå kommun",
            "population" : "220"
         },
         "type" : "Feature"
      },
      {
         "geometry" : {
            "coordinates" : [
               11.7777777777778,
               57.6361111111111
            ],
            "type" : "Point"
         },
         "properties" : {
            "land_area" : 870600,
            "locality_name" : "Brännö",
            "municipality_code" : "4322",
            "municipality_name" : "Göteborgs kommun",
            "population" : "708"
         },
         "type" : "Feature"
      },
      {
         "geometry" : {
            "coordinates" : [
               14.1041666666667,
               55.7230555555556
            ],
            "type" : "Point"
         },
         "properties" : {
            "land_area" : 822500,
            "locality_name" : "Brösarp",
            "municipality_code" : "2836",
            "municipality_name" : "Tomelilla kommun",
            "population" : "680"
         },
         "type" : "Feature"
      },
      {
         "geometry" : {
            "coordinates" : [
               12.1138888888889,
               57.2361111111111
            ],
            "type" : "Point"
         },
         "properties" : {
            "land_area" : 1268500,
            "locality_name" : "Bua",
            "municipality_code" : "3912",
            "municipality_name" : "Varbergs kommun",
            "population" : "1746"
         },
         "type" : "Feature"
      },
      {
         "geometry" : {
            "coordinates" : [
               11.9697222222222,
               57.4230555555555
            ],
            "type" : "Point"
         },
         "properties" : {
            "land_area" : 567400,
            "locality_name" : "Buerås",
            "municipality_code" : "3914",
            "municipality_name" : "Kungsbacka kommun",
            "population" : "708"
         },
         "type" : "Feature"
      },
      {
         "geometry" : {
            "coordinates" : [
               20.4838888888889,
               64.0286111111111
            ],
            "type" : "Point"
         },
         "properties" : {
            "land_area" : 323900,
            "locality_name" : "Bullmark",
            "municipality_code" : "8142",
            "municipality_name" : "Umeå kommun",
            "population" : "319"
         },
         "type" : "Feature"
      },
      {
         "geometry" : {
            "coordinates" : [
               12.9166666666667,
               55.55
            ],
            "type" : "Point"
         },
         "properties" : {
            "land_area" : 3627800,
            "locality_name" : "Bunkeflostrand",
            "municipality_code" : "3372",
            "municipality_name" : "Malmö kommun",
            "population" : "10386"
         },
         "type" : "Feature"
      },
      {
         "geometry" : {
            "coordinates" : [
               21.2005555555556,
               64.6177777777778
            ],
            "type" : "Point"
         },
         "properties" : {
            "land_area" : 3652700,
            "locality_name" : "Bureå",
            "municipality_code" : "8144",
            "municipality_name" : "Skellefteå kommun",
            "population" : "2360"
         },
         "type" : "Feature"
      },
      {
         "geometry" : {
            "coordinates" : [
               18.2733333333333,
               57.0311111111111
            ],
            "type" : "Point"
         },
         "properties" : {
            "land_area" : 936700,
            "locality_name" : "Burgsvik",
            "municipality_code" : "2500",
            "municipality_name" : "Gotlands kommun",
            "population" : "338"
         },
         "type" : "Feature"
      },
      {
         "geometry" : {
            "coordinates" : [
               13.1027777777778,
               55.6361111111111
            ],
            "type" : "Point"
         },
         "properties" : {
            "land_area" : 205600,
            "locality_name" : "Burlövs egnahem",
            "municipality_code" : "3374",
            "municipality_name" : "Burlövs kommun",
            "population" : "554"
         },
         "type" : "Feature"
      },
      {
         "geometry" : {
            "coordinates" : [
               13.2833333333333,
               57.2
            ],
            "type" : "Point"
         },
         "properties" : {
            "land_area" : 1559000,
            "locality_name" : "Burseryd",
            "municipality_code" : "1452",
            "municipality_name" : "Gislaveds kommun",
            "population" : "854"
         },
         "type" : "Feature"
      },
      {
         "geometry" : {
            "coordinates" : [
               20.6563888888889,
               64.5194444444444
            ],
            "type" : "Point"
         },
         "properties" : {
            "land_area" : 1844100,
            "locality_name" : "Burträsk",
            "municipality_code" : "8148",
            "municipality_name" : "Skellefteå kommun",
            "population" : "1575"
         },
         "type" : "Feature"
      },
      {
         "geometry" : {
            "coordinates" : [
               16.9416666666667,
               58.6608333333333
            ],
            "type" : "Point"
         },
         "properties" : {
            "land_area" : 491300,
            "locality_name" : "Buskhyttan",
            "municipality_code" : "0728",
            "municipality_name" : "Nyköpings kommun",
            "population" : "225"
         },
         "type" : "Feature"
      },
      {
         "geometry" : {
            "coordinates" : [
               15.8338888888889,
               58.7163888888889
            ],
            "type" : "Point"
         },
         "properties" : {
            "land_area" : 457100,
            "locality_name" : "Butbro",
            "municipality_code" : "1206",
            "municipality_name" : "Finspångs kommun",
            "population" : "261"
         },
         "type" : "Feature"
      },
      {
         "geometry" : {
            "coordinates" : [
               20.8541666666667,
               64.0611111111111
            ],
            "type" : "Point"
         },
         "properties" : {
            "land_area" : 737200,
            "locality_name" : "Bygdeå",
            "municipality_code" : "8152",
            "municipality_name" : "Robertsfors kommun",
            "population" : "502"
         },
         "type" : "Feature"
      },
      {
         "geometry" : {
            "coordinates" : [
               20.505,
               64.3505555555555
            ],
            "type" : "Point"
         },
         "properties" : {
            "land_area" : 1035200,
            "locality_name" : "Bygdsiljum",
            "municipality_code" : "8156",
            "municipality_name" : "Skellefteå kommun",
            "population" : "357"
         },
         "type" : "Feature"
      },
      {
         "geometry" : {
            "coordinates" : [
               21.2038888888889,
               64.9533333333333
            ],
            "type" : "Point"
         },
         "properties" : {
            "land_area" : 3205200,
            "locality_name" : "Byske",
            "municipality_code" : "8160",
            "municipality_name" : "Skellefteå kommun",
            "population" : "1728"
         },
         "type" : "Feature"
      },
      {
         "geometry" : {
            "coordinates" : [
               17.5297222222222,
               59.5677777777778
            ],
            "type" : "Point"
         },
         "properties" : {
            "land_area" : 10725700,
            "locality_name" : "Bålsta",
            "municipality_code" : "0520",
            "municipality_name" : "Håbo kommun",
            "population" : "14147"
         },
         "type" : "Feature"
      },
      {
         "geometry" : {
            "coordinates" : [
               12.8069444444444,
               56.0086111111111
            ],
            "type" : "Point"
         },
         "properties" : {
            "land_area" : 1201300,
            "locality_name" : "Bårslöv",
            "municipality_code" : "3376",
            "municipality_name" : "Helsingborgs kommun",
            "population" : "2682"
         },
         "type" : "Feature"
      },
      {
         "geometry" : {
            "coordinates" : [
               12.8333333333333,
               56.4333333333333
            ],
            "type" : "Point"
         },
         "properties" : {
            "land_area" : 6266200,
            "locality_name" : "Båstad",
            "municipality_code" : "2840",
            "municipality_name" : "Båstads kommun",
            "population" : "4961"
         },
         "type" : "Feature"
      },
      {
         "geometry" : {
            "coordinates" : [
               23.4233333333333,
               65.7841666666667
            ],
            "type" : "Point"
         },
         "properties" : {
            "land_area" : 956900,
            "locality_name" : "Båtskärsnäs",
            "municipality_code" : "8560",
            "municipality_name" : "Kalix kommun",
            "population" : "296"
         },
         "type" : "Feature"
      },
      {
         "geometry" : {
            "coordinates" : [
               14.3355555555556,
               56.0452777777778
            ],
            "type" : "Point"
         },
         "properties" : {
            "land_area" : 380100,
            "locality_name" : "Bäckaskog",
            "municipality_code" : "2844",
            "municipality_name" : "Kristianstads kommun",
            "population" : "293"
         },
         "type" : "Feature"
      },
      {
         "geometry" : {
            "coordinates" : [
               16.0666666666667,
               56.8883333333333
            ],
            "type" : "Point"
         },
         "properties" : {
            "land_area" : 843800,
            "locality_name" : "Bäckebo",
            "municipality_code" : "2144",
            "municipality_name" : "Nybro kommun",
            "population" : "219"
         },
         "type" : "Feature"
      },
      {
         "geometry" : {
            "coordinates" : [
               12.1611111111111,
               58.8083333333333
            ],
            "type" : "Point"
         },
         "properties" : {
            "land_area" : 1400000,
            "locality_name" : "Bäckefors",
            "municipality_code" : "4768",
            "municipality_name" : "Bengtsfors kommun",
            "population" : "673"
         },
         "type" : "Feature"
      },
      {
         "geometry" : {
            "coordinates" : [
               14.1833333333333,
               59.1583333333333
            ],
            "type" : "Point"
         },
         "properties" : {
            "land_area" : 908800,
            "locality_name" : "Bäckhammar",
            "municipality_code" : "5624",
            "municipality_name" : "Kristinehamns kommun",
            "population" : "284"
         },
         "type" : "Feature"
      },
      {
         "geometry" : {
            "coordinates" : [
               16.4583333333333,
               59.2488888888889
            ],
            "type" : "Point"
         },
         "properties" : {
            "land_area" : 393000,
            "locality_name" : "Bälgviken",
            "municipality_code" : "0730",
            "municipality_name" : "Eskilstuna kommun",
            "population" : "253"
         },
         "type" : "Feature"
      },
      {
         "geometry" : {
            "coordinates" : [
               17.5416666666667,
               59.9472222222222
            ],
            "type" : "Point"
         },
         "properties" : {
            "land_area" : 1400300,
            "locality_name" : "Bälinge",
            "municipality_code" : "0524",
            "municipality_name" : "Uppsala kommun",
            "population" : "2437"
         },
         "type" : "Feature"
      },
      {
         "geometry" : {
            "coordinates" : [
               21.9305555555556,
               65.6333333333333
            ],
            "type" : "Point"
         },
         "properties" : {
            "land_area" : 467000,
            "locality_name" : "Bälinge",
            "municipality_code" : "8564",
            "municipality_name" : "Luleå kommun",
            "population" : "307"
         },
         "type" : "Feature"
      },
      {
         "geometry" : {
            "coordinates" : [
               17.8133333333333,
               59.8572222222222
            ],
            "type" : "Point"
         },
         "properties" : {
            "land_area" : 230400,
            "locality_name" : "Bärby",
            "municipality_code" : "0526",
            "municipality_name" : "Uppsala kommun",
            "population" : "220"
         },
         "type" : "Feature"
      },
      {
         "geometry" : {
            "coordinates" : [
               15.2052777777778,
               60.5391666666667
            ],
            "type" : "Point"
         },